"name","name_ascii","type","county_fips","state_id","state_name","lat","lng","population"
"Zolfo Springs","Zolfo Springs","City","12049","FL","Florida","27.4926","-81.7869","1795"
"Zephyrhills West","Zephyrhills West","City","12101","FL","Florida","28.2311","-82.2052","5474"
"Zephyrhills South","Zephyrhills South","City","12101","FL","Florida","28.2152","-82.1886","5286"
"Zephyrhills North","Zephyrhills North","City","12101","FL","Florida","28.252","-82.1654","3570"
"Zephyrhills","Zephyrhills","City","12101","FL","Florida","28.2409","-82.1797","79795"
"Zellwood","Zellwood","City","12095","FL","Florida","28.7294","-81.5895","2609"
"Yulee","Yulee","City","12089","FL","Florida","30.635","-81.5678","14217"
"Yeehaw Junction","Yeehaw Junction","City","12097","FL","Florida","27.6993","-80.8871","201"
"Yankeetown","Yankeetown","City","12075","FL","Florida","29.0334","-82.7326","614"
"Yalaha","Yalaha","City","12069","FL","Florida","28.751","-81.8194","1546"
"Wright","Wright","City","12091","FL","Florida","30.4445","-86.6419","24814"
"Worthington Springs","Worthington Springs","City","12125","FL","Florida","29.933","-82.4149","233"
"World Golf Village","World Golf Village","City","12109","FL","Florida","29.9654","-81.4896","19975"
"Woodville","Woodville","City","12073","FL","Florida","30.312","-84.2611","4038"
"Woodlawn Beach","Woodlawn Beach","City","12113","FL","Florida","30.3865","-86.9944","3360"
"Wiscon","Wiscon","City","12053","FL","Florida","28.5409","-82.4664","788"
"Winter Springs","Winter Springs","City","12117","FL","Florida","28.6889","-81.2703","38021"
"Winter Park","Winter Park","City","12095","FL","Florida","28.5989","-81.3442","29672"
"Winter Haven","Winter Haven","City","12105","FL","Florida","28.0118","-81.7014","240768"
"Winter Garden","Winter Garden","City","12095","FL","Florida","28.5421","-81.5967","45978"
"Winter Beach","Winter Beach","City","12061","FL","Florida","27.712","-80.4254","3543"
"Windsor","Windsor","City","12061","FL","Florida","27.7869","-80.4141","273"
"Winding Cypress","Winding Cypress","City","12021","FL","Florida","26.0641","-81.6782","504"
"Windermere","Windermere","City","12095","FL","Florida","28.5028","-81.5377","3046"
"Wimauma","Wimauma","City","12057","FL","Florida","27.6964","-82.3034","11137"
"Wilton Manors","Wilton Manors","City","12011","FL","Florida","26.1593","-80.1395","11525"
"Willow Oak","Willow Oak","City","12105","FL","Florida","27.9216","-82.0244","6610"
"Williston Highlands","Williston Highlands","City","12075","FL","Florida","29.3336","-82.5357","3070"
"Williston","Williston","City","12075","FL","Florida","29.374","-82.4579","2946"
"Williamsburg","Williamsburg","City","12095","FL","Florida","28.4014","-81.4462","7449"
"Wildwood","Wildwood","City","12119","FL","Florida","28.7752","-82.0075","14747"
"Whitfield","Whitfield","City","12081","FL","Florida","27.4116","-82.5659","4315"
"White Springs","White Springs","City","12047","FL","Florida","30.3317","-82.7562","819"
"White City","White City","City","12111","FL","Florida","27.3721","-80.3404","4871"
"Whiskey Creek","Whiskey Creek","City","12071","FL","Florida","26.5733","-81.8903","5261"
"Wewahitchka","Wewahitchka","City","12045","FL","Florida","30.1148","-85.1935","1791"
"Westwood Lakes","Westwood Lakes","City","12086","FL","Florida","25.7237","-80.3717","10706"
"Westville","Westville","City","12059","FL","Florida","30.7697","-85.8465","387"
"Westview","Westview","City","12086","FL","Florida","25.8825","-80.2415","11010"
"Weston","Weston","City","12011","FL","Florida","26.1006","-80.4054","68148"
"Westlake","Westlake","City","12099","FL","Florida","26.7549","-80.2984","538"
"Westgate","Westgate","City","12099","FL","Florida","26.6994","-80.0989","8981"
"Westchester","Westchester","City","12086","FL","Florida","25.7471","-80.3523","54238"
"Westchase","Westchase","City","12057","FL","Florida","28.0597","-82.611","24185"
"West Vero Corridor","West Vero Corridor","City","12061","FL","Florida","27.6363","-80.4844","10158"
"West Samoset","West Samoset","City","12081","FL","Florida","27.4702","-82.5552","6789"
"West Perrine","West Perrine","City","12086","FL","Florida","25.6061","-80.3639","10093"
"West Pensacola","West Pensacola","City","12033","FL","Florida","30.4263","-87.2679","21960"
"West Park","West Park","City","12011","FL","Florida","25.984","-80.1923","15074"
"West Palm Beach","West Palm Beach","City","12099","FL","Florida","26.7469","-80.132","115877"
"West Miami","West Miami","City","12086","FL","Florida","25.7578","-80.2969","7090"
"West Melbourne","West Melbourne","City","12009","FL","Florida","28.0694","-80.6736","25768"
"West Little River","West Little River","City","12086","FL","Florida","25.8571","-80.2367","33284"
"West Lealman","West Lealman","City","12103","FL","Florida","27.8192","-82.7384","13847"
"West DeLand","West DeLand","City","12127","FL","Florida","29.0162","-81.3343","3403"
"West Canaveral Groves","West Canaveral Groves","City","12009","FL","Florida","28.3928","-80.8459","127"
"West Bradenton","West Bradenton","City","12081","FL","Florida","27.5016","-82.6146","4096"
"Wesley Chapel","Wesley Chapel","City","12101","FL","Florida","28.2106","-82.3238","65134"
"Wellington","Wellington","City","12099","FL","Florida","26.6461","-80.2699","61445"
"Welaka","Welaka","City","12107","FL","Florida","29.4822","-81.6658","954"
"Wekiwa Springs","Wekiwa Springs","City","12117","FL","Florida","28.6984","-81.4251","24049"
"Weeki Wachee Gardens","Weeki Wachee Gardens","City","12053","FL","Florida","28.5375","-82.6208","877"
"Wedgefield","Wedgefield","City","12095","FL","Florida","28.4847","-81.0809","7912"
"Webster","Webster","City","12119","FL","Florida","28.6114","-82.0493","1025"
"Waverly","Waverly","City","12105","FL","Florida","27.9843","-81.6199","158"
"Wausau","Wausau","City","12133","FL","Florida","30.6334","-85.5874","328"
"Waukeenah","Waukeenah","City","12065","FL","Florida","30.402","-83.96","110"
"Wauchula","Wauchula","City","12049","FL","Florida","27.5469","-81.8102","4958"
"Watertown","Watertown","City","12023","FL","Florida","30.1856","-82.6026","2525"
"Watergate","Watergate","City","12099","FL","Florida","26.3359","-80.2125","3797"
"Washington Park","Washington Park","City","12011","FL","Florida","26.1325","-80.1824","1461"
"Warrington","Warrington","City","12033","FL","Florida","30.3835","-87.2946","16140"
"Warm Mineral Springs","Warm Mineral Springs","City","12115","FL","Florida","27.0472","-82.2702","5051"
"Wallace","Wallace","City","12113","FL","Florida","30.6746","-87.1996","2997"
"Waldo","Waldo","City","12001","FL","Florida","29.7925","-82.1663","1037"
"Wahneta","Wahneta","City","12105","FL","Florida","27.9574","-81.7287","3943"
"Wacissa","Wacissa","City","12065","FL","Florida","30.3566","-83.9937","458"
"Wabasso Beach","Wabasso Beach","City","12061","FL","Florida","27.7569","-80.3991","2142"
"Wabasso","Wabasso","City","12061","FL","Florida","27.7486","-80.4421","1016"
"Virginia Gardens","Virginia Gardens","City","12086","FL","Florida","25.8095","-80.2974","2229"
"Vineyards","Vineyards","City","12021","FL","Florida","26.2279","-81.728","3518"
"Villas","Villas","City","12071","FL","Florida","26.5504","-81.8678","13764"
"Viera West","Viera West","City","12009","FL","Florida","28.2467","-80.7387","14322"
"Viera East","Viera East","City","12009","FL","Florida","28.2613","-80.7149","12020"
"Verona Walk","Verona Walk","City","12021","FL","Florida","26.086","-81.6798","2688"
"Vero Lake Estates","Vero Lake Estates","City","12061","FL","Florida","27.7471","-80.5283","7194"
"Vero Beach South","Vero Beach South","City","12061","FL","Florida","27.6132","-80.4163","174748"
"Vero Beach","Vero Beach","City","12061","FL","Florida","27.6463","-80.393","16254"
"Vernon","Vernon","City","12133","FL","Florida","30.6197","-85.7062","692"
"Verandah","Verandah","City","12071","FL","Florida","26.6973","-81.7429","1444"
"Venice Gardens","Venice Gardens","City","12115","FL","Florida","27.0739","-82.4125","3423"
"Venice","Venice","City","12115","FL","Florida","27.1184","-82.4137","24876"
"Vamo","Vamo","City","12115","FL","Florida","27.2219","-82.4988","2437"
"Valrico","Valrico","City","12057","FL","Florida","27.9193","-82.2293","39632"
"Valparaiso","Valparaiso","City","12091","FL","Florida","30.4926","-86.5079","4887"
"Upper Grand Lagoon","Upper Grand Lagoon","City","12005","FL","Florida","30.169","-85.7407","18140"
"University","University","City","12057","FL","Florida","28.0771","-82.4335","48367"
"Union Park","Union Park","City","12095","FL","Florida","28.5657","-81.2355","10334"
"Umatilla","Umatilla","City","12069","FL","Florida","28.9273","-81.665","3646"
"Tyndall AFB","Tyndall AFB","City","12005","FL","Florida","30.0856","-85.6075","1416"
"Tropical Park","Tropical Park","City","12009","FL","Florida","28.3805","-80.7075","1926"
"Trinity","Trinity","City","12101","FL","Florida","28.1809","-82.6582","18191"
"Trilby","Trilby","City","12101","FL","Florida","28.4564","-82.194","341"
"Trenton","Trenton","City","12041","FL","Florida","29.6092","-82.8147","1804"
"Treasure Island","Treasure Island","City","12103","FL","Florida","27.774","-82.7663","6620"
"Town 'n' Country","Town 'n' Country","City","12057","FL","Florida","28.0106","-82.5763","89679"
"Titusville","Titusville","City","12009","FL","Florida","28.5727","-80.8193","48158"
"Timber Pines","Timber Pines","City","12053","FL","Florida","28.469","-82.5999","4935"
"Tildenville","Tildenville","City","12095","FL","Florida","28.5384","-81.6025","55"
"Tiger Point","Tiger Point","City","12113","FL","Florida","30.3757","-87.0573","3470"
"Tierra Verde","Tierra Verde","City","12103","FL","Florida","27.6687","-82.7299","3847"
"Tice","Tice","City","12071","FL","Florida","26.6756","-81.8166","5200"
"Three Oaks","Three Oaks","City","12071","FL","Florida","26.4724","-81.7959","5158"
"Three Lakes","Three Lakes","City","12086","FL","Florida","25.6415","-80.4","15367"
"Thonotosassa","Thonotosassa","City","12057","FL","Florida","28.0464","-82.291","14278"
"The Villages","The Villages","City","12119","FL","Florida","28.9034","-81.9887","119296"
"The Meadows","The Meadows","City","12115","FL","Florida","27.3647","-82.4716","5330"
"The Hammocks","The Hammocks","City","12086","FL","Florida","25.67","-80.4482","61461"
"The Crossings","The Crossings","City","12086","FL","Florida","25.6708","-80.4018","22382"
"The Acreage","The Acreage","City","12099","FL","Florida","26.774","-80.2779","40771"
"Tequesta","Tequesta","City","12099","FL","Florida","26.9618","-80.1011","6097"
"Temple Terrace","Temple Terrace","City","12057","FL","Florida","28.0436","-82.3773","26585"
"Taylor Creek","Taylor Creek","City","12093","FL","Florida","27.2173","-80.7925","4478"
"Tavernier","Tavernier","City","12087","FL","Florida","25.0188","-80.5132","2286"
"Tavares","Tavares","City","12069","FL","Florida","28.792","-81.7352","18290"
"Tarpon Springs","Tarpon Springs","City","12103","FL","Florida","28.1493","-82.7623","25138"
"Tangerine","Tangerine","City","12095","FL","Florida","28.759","-81.6341","3659"
"Tangelo Park","Tangelo Park","City","12095","FL","Florida","28.456","-81.4465","3202"
"Tampa","Tampa","City","12057","FL","Florida","27.9945","-82.4447","2683956"
"Tamiami","Tamiami","City","12086","FL","Florida","25.7556","-80.4016","54525"
"Tamarac","Tamarac","City","12011","FL","Florida","26.2056","-80.2539","71140"
"Tallahassee","Tallahassee","City","12073","FL","Florida","30.4551","-84.2527","257648"
"Taft","Taft","City","12095","FL","Florida","28.4283","-81.3677","1525"
"Sweetwater","Sweetwater","City","12086","FL","Florida","25.7785","-80.376","19426"
"Surfside","Surfside","City","12086","FL","Florida","25.8787","-80.125","5665"
"Sunset","Sunset","City","12086","FL","Florida","25.706","-80.353","14415"
"Sunrise","Sunrise","City","12011","FL","Florida","26.1547","-80.2997","96220"
"Sunny Isles Beach","Sunny Isles Beach","City","12086","FL","Florida","25.9385","-80.1246","22234"
"Suncoast Estates","Suncoast Estates","City","12071","FL","Florida","26.7123","-81.8684","4308"
"Sun City Center","Sun City Center","City","12057","FL","Florida","27.715","-82.3569","26920"
"Sumatra","Sumatra","City","12077","FL","Florida","30.023","-84.9825","70"
"Sugarmill Woods","Sugarmill Woods","City","12017","FL","Florida","28.7299","-82.501","10629"
"Stuart","Stuart","City","12085","FL","Florida","27.1959","-80.2444","17269"
"Stock Island","Stock Island","City","12087","FL","Florida","24.5658","-81.7351","4906"
"Steinhatchee","Steinhatchee","City","12123","FL","Florida","29.6795","-83.3837","580"
"Starke","Starke","City","12007","FL","Florida","29.9474","-82.1129","5669"
"Stacey Street","Stacey Street","City","12099","FL","Florida","26.6978","-80.1239","928"
"St. Petersburg","St. Petersburg","City","12103","FL","Florida","27.7931","-82.6652","258245"
"St. Pete Beach","St. Pete Beach","City","12103","FL","Florida","27.7235","-82.7387","8963"
"St. Marks","St. Marks","City","12129","FL","Florida","30.1656","-84.2078","298"
"St. Lucie Village","St. Lucie Village","City","12111","FL","Florida","27.4967","-80.3417","831"
"St. Leo","St. Leo","City","12101","FL","Florida","28.3363","-82.2588","1277"
"St. James City","St. James City","City","12071","FL","Florida","26.5506","-82.0979","3551"
"St. George Island","St. George Island","City","12037","FL","Florida","29.652","-84.8881","972"
"St. Cloud","St. Cloud","City","12097","FL","Florida","28.2363","-81.2779","57610"
"St. Augustine South","St. Augustine South","City","12109","FL","Florida","29.8449","-81.3156","5354"
"St. Augustine Shores","St. Augustine Shores","City","12109","FL","Florida","29.8039","-81.3086","9828"
"St. Augustine Beach","St. Augustine Beach","City","12109","FL","Florida","29.8415","-81.2713","6688"
"St. Augustine","St. Augustine","City","12109","FL","Florida","29.8976","-81.31","78386"
"Springfield","Springfield","City","12005","FL","Florida","30.1711","-85.609","8429"
"Spring Ridge","Spring Ridge","City","12041","FL","Florida","29.8218","-82.7245","229"
"Spring Lake","Spring Lake","City","12053","FL","Florida","28.4952","-82.3017","469"
"Spring Hill","Spring Hill","City","12053","FL","Florida","28.4798","-82.53","179668"
"Southwest Ranches","Southwest Ranches","City","12011","FL","Florida","26.0476","-80.3751","7613"
"Southgate","Southgate","City","12115","FL","Florida","27.3066","-82.5107","6045"
"Southeast Arcadia","Southeast Arcadia","City","12027","FL","Florida","27.1862","-81.8521","7664"
"Southchase","Southchase","City","12095","FL","Florida","28.3793","-81.3903","15592"
"South Venice","South Venice","City","12115","FL","Florida","27.0444","-82.4155","16426"
"South Sarasota","South Sarasota","City","12115","FL","Florida","27.2857","-82.5332","4700"
"South Patrick Shores","South Patrick Shores","City","12009","FL","Florida","28.202","-80.6137","7053"
"South Pasadena","South Pasadena","City","12103","FL","Florida","27.7526","-82.7394","5319"
"South Palm Beach","South Palm Beach","City","12099","FL","Florida","26.5898","-80.039","1875"
"South Miami Heights","South Miami Heights","City","12086","FL","Florida","25.5886","-80.3862","36239"
"South Miami","South Miami","City","12086","FL","Florida","25.7079","-80.2952","11997"
"South Highpoint","South Highpoint","City","12103","FL","Florida","27.9086","-82.7162","5744"
"South Gate Ridge","South Gate Ridge","City","12115","FL","Florida","27.2856","-82.497","6125"
"South Daytona","South Daytona","City","12127","FL","Florida","29.1657","-81.0055","12984"
"South Brooksville","South Brooksville","City","12053","FL","Florida","28.5243","-82.4159","4488"
"South Bradenton","South Bradenton","City","12081","FL","Florida","27.4612","-82.5822","24972"
"South Beach","South Beach","City","12061","FL","Florida","27.5883","-80.3435","3204"
"South Bay","South Bay","City","12099","FL","Florida","26.677","-80.7265","6284"
"South Apopka","South Apopka","City","12095","FL","Florida","28.657","-81.5058","7688"
"Sorrento","Sorrento","City","12069","FL","Florida","28.8087","-81.5632","145"
"Sopchoppy","Sopchoppy","City","12129","FL","Florida","30.0598","-84.4854","434"
"Solana","Solana","City","12015","FL","Florida","26.9388","-82.0277","1178"
"Sneads","Sneads","City","12063","FL","Florida","30.7085","-84.9249","1939"
"Sky Lake","Sky Lake","City","12095","FL","Florida","28.4611","-81.3913","7431"
"Silver Springs Shores East","Silver Springs Shores East","City","12083","FL","Florida","29.0496","-81.8875","716"
"Silver Springs Shores","Silver Springs Shores","City","12083","FL","Florida","29.1126","-82.0149","25363"
"Silver Springs","Silver Springs","City","12083","FL","Florida","29.2191","-82.0558","2870"
"Silver Lake","Silver Lake","City","12069","FL","Florida","28.8426","-81.8009","2552"
"Siesta Key","Siesta Key","City","12115","FL","Florida","27.2779","-82.5516","5416"
"Sharpes","Sharpes","City","12009","FL","Florida","28.4381","-80.7552","2569"
"Shalimar","Shalimar","City","12091","FL","Florida","30.4435","-86.583","823"
"Shady Hills","Shady Hills","City","12101","FL","Florida","28.4042","-82.5468","12359"
"Sewall's Point","Sewall's Point","City","12085","FL","Florida","27.1971","-80.1982","1984"
"Seville","Seville","City","12127","FL","Florida","29.3364","-81.5066","1220"
"Seminole Manor","Seminole Manor","City","12099","FL","Florida","26.5836","-80.1014","2634"
"Seminole","Seminole","City","12103","FL","Florida","27.8435","-82.784","19224"
"Seffner","Seffner","City","12057","FL","Florida","27.9981","-82.2735","8484"
"Sebring","Sebring","City","12055","FL","Florida","27.477","-81.453","63287"
"Sebastian","Sebastian","City","12061","FL","Florida","27.7822","-80.4819","24843"
"Sea Ranch Lakes","Sea Ranch Lakes","City","12011","FL","Florida","26.2007","-80.0981","513"
"Scottsmoor","Scottsmoor","City","12009","FL","Florida","28.768","-80.871","972"
"Schall Circle","Schall Circle","City","12099","FL","Florida","26.7153","-80.1144","755"
"Sawgrass","Sawgrass","City","12109","FL","Florida","30.19","-81.3704","4634"
"Satellite Beach","Satellite Beach","City","12009","FL","Florida","28.1782","-80.6019","11093"
"Sarasota Springs","Sarasota Springs","City","12115","FL","Florida","27.3087","-82.4746","12366"
"Sarasota","Sarasota","City","12115","FL","Florida","27.3387","-82.5432","727388"
"Sanibel","Sanibel","City","12071","FL","Florida","26.4534","-82.1023","6437"
"Sanford","Sanford","City","12117","FL","Florida","28.7891","-81.2757","60215"
"San Castle","San Castle","City","12099","FL","Florida","26.5652","-80.0611","3495"
"San Carlos Park","San Carlos Park","City","12071","FL","Florida","26.4765","-81.8193","18590"
"San Antonio","San Antonio","City","12101","FL","Florida","28.3395","-82.2786","1235"
"Samsula-Spruce Creek","Samsula-Spruce Creek","City","12127","FL","Florida","29.0484","-81.0628","5202"
"Samoset","Samoset","City","12081","FL","Florida","27.4764","-82.543","4346"
"Safety Harbor","Safety Harbor","City","12103","FL","Florida","28.008","-82.6964","17093"
"Ruskin","Ruskin","City","12057","FL","Florida","27.7065","-82.4209","26536"
"Royal Palm Estates","Royal Palm Estates","City","12099","FL","Florida","26.6817","-80.1328","1563"
"Royal Palm Beach","Royal Palm Beach","City","12099","FL","Florida","26.7038","-80.2241","38697"
"Rotonda","Rotonda","City","12015","FL","Florida","26.8844","-82.2791","9906"
"Roseland","Roseland","City","12061","FL","Florida","27.836","-80.4885","1552"
"Roosevelt Gardens","Roosevelt Gardens","City","12011","FL","Florida","26.1406","-80.181","2295"
"Roeville","Roeville","City","12113","FL","Florida","30.6836","-86.9927","551"
"Rockledge","Rockledge","City","12009","FL","Florida","28.3203","-80.736","27466"
"Riviera Beach","Riviera Beach","City","12099","FL","Florida","26.7813","-80.0741","37301"
"Riverview","Riverview","City","12057","FL","Florida","27.8227","-82.3023","98928"
"River Ridge","River Ridge","City","12101","FL","Florida","28.2669","-82.6257","5352"
"River Park","River Park","City","12111","FL","Florida","27.3214","-80.3308","6281"
"Rio Pinar","Rio Pinar","City","12095","FL","Florida","28.5271","-81.2628","5533"
"Rio","Rio","City","12085","FL","Florida","27.216","-80.2401","901"
"Ridgecrest","Ridgecrest","City","12103","FL","Florida","27.8923","-82.8074","3296"
"Ridge Wood Heights","Ridge Wood Heights","City","12115","FL","Florida","27.2874","-82.5137","4875"
"Ridge Manor","Ridge Manor","City","12053","FL","Florida","28.4988","-82.1832","4578"
"Richmond West","Richmond West","City","12086","FL","Florida","25.6105","-80.4297","37626"
"Richmond Heights","Richmond Heights","City","12086","FL","Florida","25.6347","-80.3721","10256"
"Redington Shores","Redington Shores","City","12103","FL","Florida","27.8293","-82.8277","2043"
"Redington Beach","Redington Beach","City","12103","FL","Florida","27.8128","-82.8096","1243"
"Reddick","Reddick","City","12083","FL","Florida","29.3687","-82.1976","522"
"Raleigh","Raleigh","City","12075","FL","Florida","29.4479","-82.468","867"
"Rainbow Springs","Rainbow Springs","City","12083","FL","Florida","29.094","-82.4408","4957"
"Rainbow Park","Rainbow Park","City","12083","FL","Florida","29.1654","-82.364","1785"
"Rainbow Lakes Estates","Rainbow Lakes Estates","City","12083","FL","Florida","29.158","-82.5099","3406"
"Raiford","Raiford","City","12125","FL","Florida","30.0638","-82.2391","271"
"Quincy","Quincy","City","12039","FL","Florida","30.5661","-84.5858","8038"
"Quail Ridge","Quail Ridge","City","12101","FL","Florida","28.3451","-82.5535","2767"
"Punta Rassa","Punta Rassa","City","12071","FL","Florida","26.5036","-81.9998","1555"
"Punta Gorda","Punta Gorda","City","12015","FL","Florida","26.8941","-82.0513","19230"
"Progress Village","Progress Village","City","12057","FL","Florida","27.8831","-82.3593","10129"
"Princeton","Princeton","City","12086","FL","Florida","25.5396","-80.3971","36381"
"Pretty Bayou","Pretty Bayou","City","12005","FL","Florida","30.1976","-85.6974","2497"
"Port St. Lucie","Port St. Lucie","City","12111","FL","Florida","27.2796","-80.3884","468979"
"Port St. John","Port St. John","City","12009","FL","Florida","28.4757","-80.8104","24677"
"Port St. Joe","Port St. Joe","City","12045","FL","Florida","29.8274","-85.3075","3680"
"Port Salerno","Port Salerno","City","12085","FL","Florida","27.1461","-80.1894","11441"
"Port Richey","Port Richey","City","12101","FL","Florida","28.2759","-82.7254","3027"
"Port Orange","Port Orange","City","12127","FL","Florida","29.1085","-81.0137","62197"
"Port LaBelle","Port LaBelle","City","12051","FL","Florida","26.7565","-81.3827","5487"
"Port Charlotte","Port Charlotte","City","12015","FL","Florida","26.9918","-82.114","62531"
"Ponce de Leon","Ponce de Leon","City","12059","FL","Florida","30.7234","-85.9374","776"
"Ponce Inlet","Ponce Inlet","City","12127","FL","Florida","29.0927","-80.9472","3342"
"Pompano Beach","Pompano Beach","City","12011","FL","Florida","26.2428","-80.1312","111423"
"Pomona Park","Pomona Park","City","12107","FL","Florida","29.5015","-81.5936","1327"
"Polk City","Polk City","City","12105","FL","Florida","28.1805","-81.8296","2637"
"Point Baker","Point Baker","City","12113","FL","Florida","30.6855","-87.0522","3280"
"Poinciana","Poinciana","City","12105","FL","Florida","28.1217","-81.4821","68922"
"Plantation Island","Plantation Island","City","12021","FL","Florida","25.8475","-81.3757","0"
"Plantation","Plantation","City","12011","FL","Florida","26.1259","-80.2617","92212"
"Plant City","Plant City","City","12057","FL","Florida","28.014","-82.1201","39272"
"Pittman","Pittman","City","12069","FL","Florida","28.9967","-81.6462","233"
"Pioneer","Pioneer","City","12051","FL","Florida","26.7257","-81.219","382"
"Pinewood","Pinewood","City","12086","FL","Florida","25.8697","-80.2174","17110"
"Pinellas Park","Pinellas Park","City","12103","FL","Florida","27.8589","-82.7078","53130"
"Pineland","Pineland","City","12071","FL","Florida","26.6642","-82.1477","448"
"Pinecrest","Pinecrest","City","12086","FL","Florida","25.665","-80.3042","18405"
"Pinecraft","Pinecraft","City","12115","FL","Florida","27.3229","-82.4999","491"
"Pine Ridge","Pine Ridge","City","12017","FL","Florida","28.933","-82.4761","10051"
"Pine Manor","Pine Manor","City","12071","FL","Florida","26.573","-81.8774","4080"
"Pine Level","Pine Level","City","12113","FL","Florida","30.8887","-87.1687","103"
"Pine Lakes","Pine Lakes","City","12069","FL","Florida","28.939","-81.4308","1208"
"Pine Island Center","Pine Island Center","City","12071","FL","Florida","26.6351","-82.1253","1973"
"Pine Island","Pine Island","City","12053","FL","Florida","28.5727","-82.6546","139"
"Pine Hills","Pine Hills","City","12095","FL","Florida","28.5818","-81.4692","84289"
"Pine Castle","Pine Castle","City","12095","FL","Florida","28.4651","-81.3741","11167"
"Pine Air","Pine Air","City","12099","FL","Florida","26.6586","-80.1075","2453"
"Pierson","Pierson","City","12127","FL","Florida","29.2401","-81.4559","1575"
"Perry","Perry","City","12123","FL","Florida","30.109","-83.5821","6886"
"Pensacola Station","Pensacola Station","City","12033","FL","Florida","30.3541","-87.305","5423"
"Pensacola","Pensacola","City","12033","FL","Florida","30.4413","-87.1911","360711"
"Penney Farms","Penney Farms","City","12019","FL","Florida","29.9807","-81.8108","680"
"Pembroke Pines","Pembroke Pines","City","12011","FL","Florida","26.0128","-80.3382","170346"
"Pembroke Park","Pembroke Park","City","12011","FL","Florida","25.9852","-80.1777","6269"
"Pelican Marsh","Pelican Marsh","City","12021","FL","Florida","26.2545","-81.7861","2196"
"Pelican Bay","Pelican Bay","City","12021","FL","Florida","26.2327","-81.8108","6243"
"Pebble Creek","Pebble Creek","City","12057","FL","Florida","28.1583","-82.3411","10569"
"Pea Ridge","Pea Ridge","City","12113","FL","Florida","30.603","-87.1022","4190"
"Paxton","Paxton","City","12131","FL","Florida","30.9746","-86.3099","672"
"Patrick AFB","Patrick AFB","City","12009","FL","Florida","28.2346","-80.6079","1609"
"Pasadena Hills","Pasadena Hills","City","12101","FL","Florida","28.2881","-82.238","11788"
"Parkland","Parkland","City","12011","FL","Florida","26.3219","-80.2533","33772"
"Parker","Parker","City","12005","FL","Florida","30.1289","-85.6008","4273"
"Paradise Heights","Paradise Heights","City","12095","FL","Florida","28.6237","-81.5439","614"
"Panama City Beach","Panama City Beach","City","12005","FL","Florida","30.237","-85.8776","17882"
"Panama City","Panama City","City","12005","FL","Florida","30.1995","-85.6003","149366"
"Panacea","Panacea","City","12129","FL","Florida","30.0282","-84.3936","1050"
"Palmona Park","Palmona Park","City","12071","FL","Florida","26.6892","-81.8945","759"
"Palmetto Estates","Palmetto Estates","City","12086","FL","Florida","25.6211","-80.3616","16612"
"Palmetto Bay","Palmetto Bay","City","12086","FL","Florida","25.6219","-80.3221","24327"
"Palmetto","Palmetto","City","12081","FL","Florida","27.5251","-82.5749","13304"
"Palmer Ranch","Palmer Ranch","City","12115","FL","Florida","27.2286","-82.4672","14430"
"Palm Valley","Palm Valley","City","12109","FL","Florida","30.2011","-81.3948","20115"
"Palm Springs North","Palm Springs North","City","12086","FL","Florida","25.9351","-80.3339","5498"
"Palm Springs","Palm Springs","City","12099","FL","Florida","26.6348","-80.0969","26611"
"Palm Shores","Palm Shores","City","12009","FL","Florida","28.1919","-80.6594","1637"
"Palm River-Clair Mel","Palm River-Clair Mel","City","12057","FL","Florida","27.9239","-82.3791","25492"
"Palm Harbor","Palm Harbor","City","12103","FL","Florida","28.0847","-82.7481","60682"
"Palm Coast","Palm Coast","City","12035","FL","Florida","29.5389","-81.2457","403834"
"Palm City","Palm City","City","12085","FL","Florida","27.1735","-80.2862","25486"
"Palm Beach Shores","Palm Beach Shores","City","12099","FL","Florida","26.7775","-80.0367","1046"
"Palm Beach Gardens","Palm Beach Gardens","City","12099","FL","Florida","26.8466","-80.1679","58482"
"Palm Beach","Palm Beach","City","12099","FL","Florida","26.6945","-80.0408","9175"
"Palm Bay","Palm Bay","City","12009","FL","Florida","27.9631","-80.6593","528322"
"Palatka","Palatka","City","12107","FL","Florida","29.6493","-81.6705","10399"
"Paisley","Paisley","City","12069","FL","Florida","28.985","-81.5404","1115"
"Pahokee","Pahokee","City","12099","FL","Florida","26.8202","-80.6621","5504"
"Page Park","Page Park","City","12071","FL","Florida","26.5782","-81.8614","857"
"Pace","Pace","City","12113","FL","Florida","30.6188","-87.1667","23527"
"Oviedo","Oviedo","City","12117","FL","Florida","28.658","-81.1872","39405"
"Otter Creek","Otter Creek","City","12075","FL","Florida","29.3238","-82.7734","114"
"Osprey","Osprey","City","12115","FL","Florida","27.1914","-82.48","6395"
"Ormond-by-the-Sea","Ormond-by-the-Sea","City","12127","FL","Florida","29.3437","-81.0677","6414"
"Ormond Beach","Ormond Beach","City","12127","FL","Florida","29.2985","-81.1014","42707"
"Orlovista","Orlovista","City","12095","FL","Florida","28.5441","-81.4629","7145"
"Orlando","Orlando","City","12095","FL","Florida","28.4773","-81.337","1927699"
"Oriole Beach","Oriole Beach","City","12113","FL","Florida","30.367","-87.0955","1739"
"Orchid","Orchid","City","12061","FL","Florida","27.7733","-80.4181","536"
"Orangetree","Orangetree","City","12021","FL","Florida","26.2929","-81.5786","4425"
"Orange Park","Orange Park","City","12019","FL","Florida","30.1706","-81.7041","8682"
"Orange City","Orange City","City","12127","FL","Florida","28.9348","-81.2881","12748"
"Opa-locka","Opa-locka","City","12086","FL","Florida","25.8997","-80.2551","16310"
"Ona","Ona","City","12049","FL","Florida","27.483","-81.9097","415"
"On Top of the World Designated Place","On Top of the World Designated Place","City","12083","FL","Florida","29.1058","-82.2866","11826"
"Olympia Heights","Olympia Heights","City","12086","FL","Florida","25.724","-80.3388","13695"
"Olga","Olga","City","12071","FL","Florida","26.7114","-81.695","2664"
"Oldsmar","Oldsmar","City","12103","FL","Florida","28.0506","-82.6698","14800"
"Old Miakka","Old Miakka","City","12115","FL","Florida","27.3199","-82.2777","1290"
"Okeechobee","Okeechobee","City","12093","FL","Florida","27.2413","-80.8298","5279"
"Okahumpka","Okahumpka","City","12069","FL","Florida","28.7459","-81.8962","147"
"Ojus","Ojus","City","12086","FL","Florida","25.9563","-80.1606","16530"
"Odessa","Odessa","City","12101","FL","Florida","28.1821","-82.553","7682"
"Ocoee","Ocoee","City","12095","FL","Florida","28.5796","-81.5332","46562"
"Ocklawaha","Ocklawaha","City","12083","FL","Florida","29.0442","-81.9339","1874"
"Ocean Ridge","Ocean Ridge","City","12099","FL","Florida","26.5286","-80.0499","1574"
"Ocean City","Ocean City","City","12091","FL","Florida","30.4398","-86.6071","5786"
"Ocean Breeze","Ocean Breeze","City","12085","FL","Florida","27.2411","-80.2262","292"
"Ocala Estates","Ocala Estates","City","12083","FL","Florida","29.2018","-82.3098","3243"
"Ocala","Ocala","City","12083","FL","Florida","29.178","-82.1511","174618"
"Oakleaf Plantation","Oakleaf Plantation","City","12019","FL","Florida","30.1689","-81.8337","28808"
"Oakland Park","Oakland Park","City","12011","FL","Florida","26.178","-80.1528","44092"
"Oakland","Oakland","City","12095","FL","Florida","28.5535","-81.636","3444"
"Oak Ridge","Oak Ridge","City","12095","FL","Florida","28.4727","-81.4169","25973"
"Oak Hill","Oak Hill","City","12127","FL","Florida","28.878","-80.8347","1866"
"Northdale","Northdale","City","12057","FL","Florida","28.1058","-82.5263","24924"
"North Weeki Wachee","North Weeki Wachee","City","12053","FL","Florida","28.5592","-82.5537","7257"
"North Sarasota","North Sarasota","City","12115","FL","Florida","27.3592","-82.5213","2370"
"North River Shores","North River Shores","City","12085","FL","Florida","27.2223","-80.2738","3739"
"North Redington Beach","North Redington Beach","City","12103","FL","Florida","27.8213","-82.819","1148"
"North Port","North Port","City","12115","FL","Florida","27.0576","-82.1977","221616"
"North Palm Beach","North Palm Beach","City","12099","FL","Florida","26.8217","-80.0576","13096"
"North Miami Beach","North Miami Beach","City","12086","FL","Florida","25.9302","-80.1659","43357"
"North Miami","North Miami","City","12086","FL","Florida","25.9008","-80.1686","60449"
"North Merritt Island","North Merritt Island","City","12009","FL","Florida","28.4585","-80.7162","8429"
"North Lauderdale","North Lauderdale","City","12011","FL","Florida","26.2113","-80.2209","44579"
"North Key Largo","North Key Largo","City","12087","FL","Florida","25.2574","-80.3242","1263"
"North Fort Myers","North Fort Myers","City","12071","FL","Florida","26.7244","-81.8485","41551"
"North DeLand","North DeLand","City","12127","FL","Florida","29.0484","-81.2966","837"
"North Brooksville","North Brooksville","City","12053","FL","Florida","28.5731","-82.3744","3644"
"North Bay Village","North Bay Village","City","12086","FL","Florida","25.8487","-80.1535","8057"
"Noma","Noma","City","12059","FL","Florida","30.9802","-85.6223","336"
"Nokomis","Nokomis","City","12115","FL","Florida","27.1241","-82.4354","3481"
"Nocatee","Nocatee","City","12109","FL","Florida","30.0927","-81.4095","19601"
"Nobleton","Nobleton","City","12053","FL","Florida","28.6451","-82.262","289"
"Niceville","Niceville","City","12091","FL","Florida","30.529","-86.4748","15532"
"Newberry","Newberry","City","12001","FL","Florida","29.6382","-82.6061","7261"
"New Smyrna Beach","New Smyrna Beach","City","12127","FL","Florida","29.0249","-80.9652","29674"
"New Port Richey East","New Port Richey East","City","12101","FL","Florida","28.2605","-82.6931","11109"
"New Port Richey","New Port Richey","City","12101","FL","Florida","28.2468","-82.717","16348"
"Neptune Beach","Neptune Beach","City","12031","FL","Florida","30.3165","-81.4118","6880"
"Navarre Beach","Navarre Beach","City","12113","FL","Florida","30.383","-86.8874","1515"
"Navarre","Navarre","City","12113","FL","Florida","30.4174","-86.8907","223951"
"Nassau Village-Ratliff","Nassau Village-Ratliff","City","12089","FL","Florida","30.5108","-81.8089","4799"
"Naranja","Naranja","City","12086","FL","Florida","25.5164","-80.4222","12905"
"Naples Park","Naples Park","City","12021","FL","Florida","26.2633","-81.8094","5664"
"Naples Manor","Naples Manor","City","12021","FL","Florida","26.0892","-81.7254","6384"
"Naples","Naples","City","12021","FL","Florida","26.1504","-81.7936","19187"
"Myrtle Grove","Myrtle Grove","City","12033","FL","Florida","30.4158","-87.3027","17023"
"Munson","Munson","City","12113","FL","Florida","30.8418","-86.887","262"
"Mulberry","Mulberry","City","12105","FL","Florida","27.9058","-81.9873","3920"
"Mulat","Mulat","City","12113","FL","Florida","30.5595","-87.1297","226"
"Mount Plymouth","Mount Plymouth","City","12069","FL","Florida","28.8024","-81.5351","5359"
"Mount Dora","Mount Dora","City","12069","FL","Florida","28.8142","-81.6344","15830"
"Mount Carmel","Mount Carmel","City","12113","FL","Florida","30.9868","-87.121","231"
"Morriston","Morriston","City","12075","FL","Florida","29.2811","-82.44","130"
"Moore Haven","Moore Haven","City","12043","FL","Florida","26.8338","-81.0984","2124"
"Moon Lake","Moon Lake","City","12101","FL","Florida","28.2993","-82.605","4458"
"Montverde","Montverde","City","12069","FL","Florida","28.5971","-81.6786","2088"
"Montura","Montura","City","12051","FL","Florida","26.6428","-81.0937","3424"
"Monticello","Monticello","City","12065","FL","Florida","30.5423","-83.8722","2539"
"Molino","Molino","City","12033","FL","Florida","30.7123","-87.324","942"
"Miramar Beach","Miramar Beach","City","12131","FL","Florida","30.3854","-86.3442","9059"
"Miramar","Miramar","City","12011","FL","Florida","25.9773","-80.3351","134306"
"Minneola","Minneola","City","12069","FL","Florida","28.6067","-81.7322","13709"
"Mims","Mims","City","12009","FL","Florida","28.6929","-80.8468","7702"
"Milton","Milton","City","12113","FL","Florida","30.6286","-87.0522","10040"
"Midway","Midway","City","12113","FL","Florida","30.4169","-87.0229","19617"
"Midway","Midway","City","12039","FL","Florida","30.4995","-84.4582","3402"
"Midway","Midway","City","12117","FL","Florida","28.7924","-81.2314","1226"
"Middleburg","Middleburg","City","12019","FL","Florida","30.0502","-81.9011","12127"
"Miccosukee","Miccosukee","City","12073","FL","Florida","30.5931","-84.047","300"
"Micco","Micco","City","12009","FL","Florida","27.8683","-80.51","8618"
"Micanopy","Micanopy","City","12001","FL","Florida","29.506","-82.2806","495"
"Miami Springs","Miami Springs","City","12086","FL","Florida","25.8195","-80.2894","13880"
"Miami Shores","Miami Shores","City","12086","FL","Florida","25.867","-80.1779","11551"
"Miami Lakes","Miami Lakes","City","12086","FL","Florida","25.9125","-80.3214","30582"
"Miami Gardens","Miami Gardens","City","12086","FL","Florida","25.9433","-80.2426","111706"
"Miami Beach","Miami Beach","City","12086","FL","Florida","25.8171","-80.1396","83469"
"Miami","Miami","City","12086","FL","Florida","25.784","-80.2101","5711945"
"Mexico Beach","Mexico Beach","City","12005","FL","Florida","29.948","-85.4156","1273"
"Merritt Island","Merritt Island","City","12009","FL","Florida","28.3139","-80.6708","34013"
"Memphis","Memphis","City","12081","FL","Florida","27.5435","-82.5608","11012"
"Melbourne Village","Melbourne Village","City","12009","FL","Florida","28.088","-80.6652","741"
"Melbourne Beach","Melbourne Beach","City","12009","FL","Florida","28.0668","-80.561","3219"
"Melbourne","Melbourne","City","12009","FL","Florida","28.1086","-80.6627","83500"
"Medulla","Medulla","City","12105","FL","Florida","27.957","-81.9866","11493"
"Medley","Medley","City","12086","FL","Florida","25.8647","-80.3516","957"
"Meadow Woods","Meadow Woods","City","12095","FL","Florida","28.3698","-81.3467","39904"
"Meadow Oaks","Meadow Oaks","City","12101","FL","Florida","28.3465","-82.6025","2815"
"McIntosh","McIntosh","City","12083","FL","Florida","29.4494","-82.2211","290"
"McGregor","McGregor","City","12071","FL","Florida","26.5611","-81.9134","7924"
"Mayo","Mayo","City","12067","FL","Florida","30.0511","-83.1768","1730"
"Matlacha Isles-Matlacha Shores","Matlacha Isles-Matlacha Shores","City","12071","FL","Florida","26.6341","-82.059","356"
"Matlacha","Matlacha","City","12071","FL","Florida","26.6303","-82.0718","827"
"Mascotte","Mascotte","City","12069","FL","Florida","28.611","-81.9106","6632"
"Masaryktown","Masaryktown","City","12053","FL","Florida","28.4417","-82.461","778"
"Mary Esther","Mary Esther","City","12091","FL","Florida","30.4127","-86.6588","3979"
"Marion Oaks","Marion Oaks","City","12083","FL","Florida","29.0011","-82.1953","20190"
"Marineland","Marineland","City","12035","FL","Florida","29.6657","-81.2138","9"
"Marianna","Marianna","City","12063","FL","Florida","30.7943","-85.2259","6446"
"Margate","Margate","City","12011","FL","Florida","26.2466","-80.2119","58331"
"Marco Shores-Hammock Bay","Marco Shores-Hammock Bay","City","12021","FL","Florida","25.9964","-81.6889","741"
"Marco Island","Marco Island","City","12021","FL","Florida","25.933","-81.6993","15929"
"Marathon","Marathon","City","12087","FL","Florida","24.7263","-81.0374","9622"
"Mangonia Park","Mangonia Park","City","12099","FL","Florida","26.7586","-80.0761","2035"
"Mango","Mango","City","12057","FL","Florida","27.9914","-82.307","11582"
"Manatee Road","Manatee Road","City","12075","FL","Florida","29.5145","-82.9192","1967"
"Manasota Key","Manasota Key","City","12015","FL","Florida","26.9226","-82.3537","1619"
"Manalapan","Manalapan","City","12099","FL","Florida","26.562","-80.0439","311"
"Malone","Malone","City","12063","FL","Florida","30.9589","-85.1622","2175"
"Malabar","Malabar","City","12009","FL","Florida","27.9884","-80.5781","2955"
"Maitland","Maitland","City","12095","FL","Florida","28.6295","-81.3718","19154"
"Madison","Madison","City","12079","FL","Florida","30.4716","-83.413","2903"
"Madeira Beach","Madeira Beach","City","12103","FL","Florida","27.7985","-82.7887","3947"
"Macclenny","Macclenny","City","12003","FL","Florida","30.2809","-82.1253","7215"
"Lynn Haven","Lynn Haven","City","12005","FL","Florida","30.2337","-85.637","19425"
"Lutz","Lutz","City","12057","FL","Florida","28.1396","-82.4467","23827"
"Loxahatchee Groves","Loxahatchee Groves","City","12099","FL","Florida","26.7106","-80.2763","3381"
"Lower Grand Lagoon","Lower Grand Lagoon","City","12005","FL","Florida","30.1444","-85.7526","4939"
"Loughman","Loughman","City","12105","FL","Florida","28.238","-81.5686","6683"
"Longwood","Longwood","City","12117","FL","Florida","28.7014","-81.3487","15085"
"Longboat Key","Longboat Key","City","12081","FL","Florida","27.3926","-82.6341","7446"
"Lockhart","Lockhart","City","12095","FL","Florida","28.627","-81.4354","14390"
"Lochmoor Waterway Estates","Lochmoor Waterway Estates","City","12071","FL","Florida","26.6447","-81.9098","5106"
"Lloyd","Lloyd","City","12065","FL","Florida","30.4822","-84.0244","153"
"Live Oak","Live Oak","City","12121","FL","Florida","30.2957","-82.9847","6771"
"Lisbon","Lisbon","City","12069","FL","Florida","28.8824","-81.7812","143"
"Limestone Creek","Limestone Creek","City","12099","FL","Florida","26.9432","-80.1407","1597"
"Limestone","Limestone","City","12049","FL","Florida","27.3673","-81.9048","373"
"Lighthouse Point","Lighthouse Point","City","12011","FL","Florida","26.2785","-80.0891","10529"
"Liberty Triangle","Liberty Triangle","City","12083","FL","Florida","29.076","-82.2191","21409"
"Lemon Grove","Lemon Grove","City","12049","FL","Florida","27.5765","-81.636","496"
"Lely Resort","Lely Resort","City","12021","FL","Florida","26.0889","-81.7031","7058"
"Lely","Lely","City","12021","FL","Florida","26.1032","-81.7297","3530"
"Leisure City","Leisure City","City","12086","FL","Florida","25.4935","-80.4363","26667"
"Lehigh Acres","Lehigh Acres","City","12071","FL","Florida","26.612","-81.6388","123751"
"Leesburg","Leesburg","City","12069","FL","Florida","28.7672","-81.8962","154301"
"Lee","Lee","City","12079","FL","Florida","30.4114","-83.3003","702"
"Lecanto","Lecanto","City","12017","FL","Florida","28.8359","-82.488","7416"
"Lealman","Lealman","City","12103","FL","Florida","27.8197","-82.6847","21213"
"Lazy Lake","Lazy Lake","City","12011","FL","Florida","26.1563","-80.1452","8"
"Layton","Layton","City","12087","FL","Florida","24.8247","-80.8128","138"
"Lawtey","Lawtey","City","12007","FL","Florida","30.0484","-82.0725","1086"
"Laurel Hill","Laurel Hill","City","12091","FL","Florida","30.9623","-86.4586","537"
"Laurel","Laurel","City","12115","FL","Florida","27.1507","-82.4534","11263"
"Lauderhill","Lauderhill","City","12011","FL","Florida","26.1605","-80.2241","73935"
"Lauderdale-by-the-Sea","Lauderdale-by-the-Sea","City","12011","FL","Florida","26.1991","-80.0971","6231"
"Lauderdale Lakes","Lauderdale Lakes","City","12011","FL","Florida","26.1682","-80.2017","35898"
"Largo","Largo","City","12103","FL","Florida","27.9088","-82.7712","82505"
"Lantana","Lantana","City","12099","FL","Florida","26.5834","-80.0564","11516"
"Land O' Lakes","Land O' Lakes","City","12101","FL","Florida","28.2075","-82.4476","38674"
"Lamont","Lamont","City","12065","FL","Florida","30.3796","-83.8135","0"
"Lakewood Ranch","Lakewood Ranch","City","12081","FL","Florida","27.4185","-82.3948","29408"
"Lakewood Park","Lakewood Park","City","12111","FL","Florida","27.539","-80.3865","13600"
"Lakeside","Lakeside","City","12019","FL","Florida","30.1356","-81.7674","31125"
"Lakeland Highlands","Lakeland Highlands","City","12105","FL","Florida","27.9572","-81.9496","11326"
"Lakeland","Lakeland","City","12105","FL","Florida","28.0557","-81.9545","308994"
"Lake Wales","Lake Wales","City","12105","FL","Florida","27.9195","-81.5961","16173"
"Lake Sarasota","Lake Sarasota","City","12115","FL","Florida","27.2948","-82.4323","4032"
"Lake Placid","Lake Placid","City","12055","FL","Florida","27.3037","-81.371","2433"
"Lake Park","Lake Park","City","12099","FL","Florida","26.7998","-80.0681","8971"
"Lake Panasoffkee","Lake Panasoffkee","City","12119","FL","Florida","28.785","-82.1258","3631"
"Lake Mystic","Lake Mystic","City","12077","FL","Florida","30.3906","-84.9857","561"
"Lake Mary Jane","Lake Mary Jane","City","12095","FL","Florida","28.3854","-81.1709","2136"
"Lake Mary","Lake Mary","City","12117","FL","Florida","28.7592","-81.336","16459"
"Lake Magdalene","Lake Magdalene","City","12057","FL","Florida","28.0875","-82.4791","31211"
"Lake Mack-Forest Hills","Lake Mack-Forest Hills","City","12069","FL","Florida","29.0007","-81.424","2252"
"Lake Lorraine","Lake Lorraine","City","12091","FL","Florida","30.4407","-86.5657","7283"
"Lake Lindsey","Lake Lindsey","City","12053","FL","Florida","28.6322","-82.3617","99"
"Lake Kerr","Lake Kerr","City","12083","FL","Florida","29.3575","-81.7746","1923"
"Lake Kathryn","Lake Kathryn","City","12069","FL","Florida","29.0072","-81.4906","865"
"Lake Helen","Lake Helen","City","12127","FL","Florida","28.983","-81.2309","2827"
"Lake Hart","Lake Hart","City","12095","FL","Florida","28.3851","-81.2322","385"
"Lake Harbor","Lake Harbor","City","12099","FL","Florida","26.6885","-80.8079","0"
"Lake Hamilton","Lake Hamilton","City","12105","FL","Florida","28.0478","-81.627","1370"
"Lake Clarke Shores","Lake Clarke Shores","City","12099","FL","Florida","26.6461","-80.0752","3570"
"Lake City","Lake City","City","12023","FL","Florida","30.1901","-82.6471","12325"
"Lake Butler","Lake Butler","City","12095","FL","Florida","28.4862","-81.546","17465"
"Lake Buena Vista","Lake Buena Vista","City","12095","FL","Florida","28.379","-81.5262","7"
"Lake Belvedere Estates","Lake Belvedere Estates","City","12099","FL","Florida","26.6888","-80.1326","1951"
"Lake Alfred","Lake Alfred","City","12105","FL","Florida","28.1041","-81.7264","6196"
"Laguna Beach","Laguna Beach","City","12005","FL","Florida","30.2549","-85.9512","4073"
"Lady Lake","Lady Lake","City","12069","FL","Florida","28.9241","-81.9299","15683"
"Lacoochee","Lacoochee","City","12101","FL","Florida","28.4655","-82.1698","1562"
"LaBelle","LaBelle","City","12051","FL","Florida","26.7219","-81.4506","4884"
"La Crosse","La Crosse","City","12001","FL","Florida","29.8395","-82.3784","316"
"Kissimmee","Kissimmee","City","12097","FL","Florida","28.3041","-81.4169","399929"
"Keystone Heights","Keystone Heights","City","12019","FL","Florida","29.7812","-82.034","1489"
"Keystone","Keystone","City","12057","FL","Florida","28.1312","-82.5999","25397"
"Key West","Key West","City","12087","FL","Florida","24.5642","-81.7775","26776"
"Key Vista","Key Vista","City","12101","FL","Florida","28.1946","-82.7703","1457"
"Key Largo","Key Largo","City","12087","FL","Florida","25.1224","-80.412","10854"
"Key Colony Beach","Key Colony Beach","City","12087","FL","Florida","24.7233","-81.0216","744"
"Key Biscayne","Key Biscayne","City","12086","FL","Florida","25.6908","-80.1653","14530"
"Kenwood Estates","Kenwood Estates","City","12099","FL","Florida","26.6276","-80.1153","1181"
"Kensington Park","Kensington Park","City","12115","FL","Florida","27.3578","-82.4942","3689"
"Kenneth City","Kenneth City","City","12103","FL","Florida","27.8156","-82.7162","5046"
"Kendall West","Kendall West","City","12086","FL","Florida","25.7065","-80.4388","36964"
"Kendall","Kendall","City","12086","FL","Florida","25.6697","-80.3556","78007"
"Kendale Lakes","Kendale Lakes","City","12086","FL","Florida","25.7081","-80.4078","53392"
"Kathleen","Kathleen","City","12105","FL","Florida","28.1224","-82.0387","6146"
"Jupiter Island","Jupiter Island","City","12085","FL","Florida","27.0451","-80.1101","879"
"Jupiter Inlet Colony","Jupiter Inlet Colony","City","12099","FL","Florida","26.948","-80.0755","452"
"Jupiter Farms","Jupiter Farms","City","12099","FL","Florida","26.9222","-80.2189","13437"
"Jupiter","Jupiter","City","12099","FL","Florida","26.92","-80.1128","60629"
"Juno Ridge","Juno Ridge","City","12099","FL","Florida","26.8491","-80.0632","1154"
"Juno Beach","Juno Beach","City","12099","FL","Florida","26.8754","-80.0589","3730"
"June Park","June Park","City","12009","FL","Florida","28.072","-80.6876","4485"
"Jensen Beach","Jensen Beach","City","12085","FL","Florida","27.2437","-80.2423","13108"
"Jennings","Jennings","City","12047","FL","Florida","30.5968","-83.107","704"
"Jay","Jay","City","12113","FL","Florida","30.9504","-87.1523","635"
"Jasper","Jasper","City","12047","FL","Florida","30.5061","-82.954","4984"
"Jasmine Estates","Jasmine Estates","City","12101","FL","Florida","28.293","-82.6907","23334"
"Jan Phyl Village","Jan Phyl Village","City","12105","FL","Florida","28.0201","-81.7933","7061"
"Jacob City","Jacob City","City","12063","FL","Florida","30.8925","-85.4108","236"
"Jacksonville Beach","Jacksonville Beach","City","12031","FL","Florida","30.2782","-81.4045","23492"
"Jacksonville","Jacksonville","City","12031","FL","Florida","30.3322","-81.6749","1220191"
"Ives Estates","Ives Estates","City","12086","FL","Florida","25.9632","-80.183","25689"
"Istachatta","Istachatta","City","12053","FL","Florida","28.6634","-82.2726","88"
"Island Walk","Island Walk","City","12021","FL","Florida","26.251","-81.711","2549"
"Islamorada, Village of Islands","Islamorada, Village of Islands","City","12087","FL","Florida","24.9407","-80.6098","7051"
"Iona","Iona","City","12071","FL","Florida","26.516","-81.9601","13160"
"Inwood","Inwood","City","12105","FL","Florida","28.0391","-81.7677","7267"
"Inverness Highlands South","Inverness Highlands South","City","12017","FL","Florida","28.8007","-82.3371","7477"
"Inverness Highlands North","Inverness Highlands North","City","12017","FL","Florida","28.8637","-82.3766","2625"
"Inverness","Inverness","City","12017","FL","Florida","28.8416","-82.3418","7423"
"Interlachen","Interlachen","City","12107","FL","Florida","29.6203","-81.8963","1646"
"Inglis","Inglis","City","12075","FL","Florida","29.0323","-82.6603","1669"
"Indiantown","Indiantown","City","12085","FL","Florida","27.0376","-80.491","6633"
"Indian Shores","Indian Shores","City","12103","FL","Florida","27.8536","-82.8438","1133"
"Indian Rocks Beach","Indian Rocks Beach","City","12103","FL","Florida","27.8961","-82.8444","3740"
"Indian River Shores","Indian River Shores","City","12061","FL","Florida","27.7084","-80.3851","4217"
"Indian River Estates","Indian River Estates","City","12111","FL","Florida","27.3564","-80.2983","6618"
"Indian Lake Estates","Indian Lake Estates","City","12105","FL","Florida","27.7988","-81.3563","634"
"Indian Harbour Beach","Indian Harbour Beach","City","12009","FL","Florida","28.1529","-80.5976","8888"
"Indian Creek","Indian Creek","City","12086","FL","Florida","25.8783","-80.1371","54"
"Indialantic","Indialantic","City","12009","FL","Florida","28.0871","-80.57","2984"
"Immokalee","Immokalee","City","12021","FL","Florida","26.4253","-81.4251","27669"
"Hypoluxo","Hypoluxo","City","12099","FL","Florida","26.5634","-80.0531","2703"
"Hutchinson Island South","Hutchinson Island South","City","12111","FL","Florida","27.3243","-80.2425","4535"
"Hurlburt Field","Hurlburt Field","City","12091","FL","Florida","30.4289","-86.6989","2577"
"Hunters Creek","Hunters Creek","City","12095","FL","Florida","28.361","-81.4358","19554"
"Hudson","Hudson","City","12101","FL","Florida","28.3595","-82.6894","11230"
"Howey-in-the-Hills","Howey-in-the-Hills","City","12069","FL","Florida","28.7098","-81.7798","1878"
"Hosford","Hosford","City","12077","FL","Florida","30.3944","-84.8034","728"
"Horseshoe Beach","Horseshoe Beach","City","12029","FL","Florida","29.4495","-83.2821","56"
"Horizon West","Horizon West","City","12095","FL","Florida","28.4417","-81.6146","54038"
"Homosassa Springs","Homosassa Springs","City","12017","FL","Florida","28.8119","-82.5392","86578"
"Homosassa","Homosassa","City","12017","FL","Florida","28.7849","-82.6079","1888"
"Homestead Base","Homestead Base","City","12086","FL","Florida","25.4936","-80.391","956"
"Homestead","Homestead","City","12086","FL","Florida","25.4665","-80.4472","78885"
"Homeland","Homeland","City","12105","FL","Florida","27.8181","-81.8268","218"
"Holmes Beach","Holmes Beach","City","12081","FL","Florida","27.5108","-82.7152","3132"
"Hollywood","Hollywood","City","12011","FL","Florida","26.0293","-80.1679","152597"
"Holly Hill","Holly Hill","City","12127","FL","Florida","29.2442","-81.0465","12833"
"Holley","Holley","City","12113","FL","Florida","30.454","-86.9036","2244"
"Holiday","Holiday","City","12101","FL","Florida","28.1864","-82.7429","21435"
"Holden Heights","Holden Heights","City","12095","FL","Florida","28.5013","-81.3878","3485"
"Hobe Sound","Hobe Sound","City","12085","FL","Florida","27.0729","-80.1425","13964"
"Hillsboro Pines","Hillsboro Pines","City","12011","FL","Florida","26.3253","-80.1947","479"
"Hillsboro Beach","Hillsboro Beach","City","12011","FL","Florida","26.2837","-80.0796","2011"
"Hilliard","Hilliard","City","12089","FL","Florida","30.6866","-81.9212","2920"
"Hillcrest Heights","Hillcrest Heights","City","12105","FL","Florida","27.8083","-81.5695","343"
"Hill 'n Dale","Hill 'n Dale","City","12053","FL","Florida","28.519","-82.2918","3114"
"Highland Park","Highland Park","City","12105","FL","Florida","27.8615","-81.5619","172"
"Highland City","Highland City","City","12105","FL","Florida","27.9633","-81.8781","10999"
"Highland Beach","Highland Beach","City","12099","FL","Florida","26.4087","-80.0661","4244"
"High Springs","High Springs","City","12001","FL","Florida","29.807","-82.5955","6216"
"High Point","High Point","City","12053","FL","Florida","28.5475","-82.5206","3845"
"Hialeah Gardens","Hialeah Gardens","City","12086","FL","Florida","25.8878","-80.3569","22917"
"Hialeah","Hialeah","City","12086","FL","Florida","25.8696","-80.3045","224362"
"Hernando Beach","Hernando Beach","City","12053","FL","Florida","28.4753","-82.6612","2544"
"Hernando","Hernando","City","12017","FL","Florida","28.9451","-82.3781","9530"
"Heritage Pines","Heritage Pines","City","12101","FL","Florida","28.4267","-82.6254","1817"
"Heritage Bay","Heritage Bay","City","12021","FL","Florida","26.2837","-81.6629","966"
"Heathrow","Heathrow","City","12117","FL","Florida","28.7754","-81.3721","6981"
"Hawthorne","Hawthorne","City","12001","FL","Florida","29.5938","-82.0944","1495"
"Haverhill","Haverhill","City","12099","FL","Florida","26.691","-80.1217","2752"
"Havana","Havana","City","12039","FL","Florida","30.6298","-84.4135","2028"
"Hastings","Hastings","City","12109","FL","Florida","29.7145","-81.499","824"
"Harold","Harold","City","12113","FL","Florida","30.6772","-86.831","892"
"Harlem Heights","Harlem Heights","City","12071","FL","Florida","26.516","-81.9293","1889"
"Harlem","Harlem","City","12051","FL","Florida","26.7324","-80.9519","2511"
"Harbour Heights","Harbour Heights","City","12015","FL","Florida","26.9928","-82.0072","4016"
"Harbor Bluffs","Harbor Bluffs","City","12103","FL","Florida","27.9081","-82.827","3050"
"Hampton","Hampton","City","12007","FL","Florida","29.8643","-82.138","488"
"Hallandale Beach","Hallandale Beach","City","12011","FL","Florida","25.9854","-80.1423","41004"
"Haines City","Haines City","City","12105","FL","Florida","28.1102","-81.6157","26510"
"Gun Club Estates","Gun Club Estates","City","12099","FL","Florida","26.6753","-80.108","732"
"Gulfport","Gulfport","City","12103","FL","Florida","27.7463","-82.7099","11830"
"Gulf Stream","Gulf Stream","City","12099","FL","Florida","26.4894","-80.0573","893"
"Gulf Breeze","Gulf Breeze","City","12113","FL","Florida","30.3684","-87.1737","6249"
"Groveland","Groveland","City","12069","FL","Florida","28.6098","-81.8246","17896"
"Grove City","Grove City","City","12015","FL","Florida","26.9071","-82.3259","1907"
"Gretna","Gretna","City","12039","FL","Florida","30.5929","-84.6876","1247"
"Grenelefe","Grenelefe","City","12105","FL","Florida","28.0579","-81.5538","2941"
"Greenwood","Greenwood","City","12063","FL","Florida","30.8727","-85.1612","617"
"Greenville","Greenville","City","12079","FL","Florida","30.4667","-83.6352","1206"
"Greensboro","Greensboro","City","12039","FL","Florida","30.5705","-84.7324","780"
"Greenbriar","Greenbriar","City","12103","FL","Florida","28.0111","-82.7523","2529"
"Greenacres","Greenacres","City","12099","FL","Florida","26.627","-80.1371","43482"
"Green Cove Springs","Green Cove Springs","City","12019","FL","Florida","29.9904","-81.6807","9351"
"Grant-Valkaria","Grant-Valkaria","City","12009","FL","Florida","27.9322","-80.5655","4449"
"Grand Ridge","Grand Ridge","City","12063","FL","Florida","30.7083","-85.0207","953"
"Graceville","Graceville","City","12063","FL","Florida","30.9609","-85.5123","2344"
"Goulds","Goulds","City","12086","FL","Florida","25.5614","-80.388","10994"
"Goulding","Goulding","City","12033","FL","Florida","30.4396","-87.23","3427"
"Gotha","Gotha","City","12095","FL","Florida","28.5306","-81.5191","1604"
"Goodland","Goodland","City","12021","FL","Florida","25.9252","-81.648","168"
"Gonzalez","Gonzalez","City","12033","FL","Florida","30.5822","-87.2906","14324"
"Golf","Golf","City","12099","FL","Florida","26.5043","-80.1091","241"
"Goldenrod","Goldenrod","City","12117","FL","Florida","28.6114","-81.2916","12629"
"Golden Glades","Golden Glades","City","12086","FL","Florida","25.9129","-80.2013","33930"
"Golden Gate","Golden Gate","City","12021","FL","Florida","26.1844","-81.7031","29271"
"Golden Beach","Golden Beach","City","12086","FL","Florida","25.966","-80.121","531"
"Glenvar Heights","Glenvar Heights","City","12086","FL","Florida","25.709","-80.3155","17237"
"Glencoe","Glencoe","City","12127","FL","Florida","29.0005","-80.9604","1074"
"Glen St. Mary","Glen St. Mary","City","12003","FL","Florida","30.2752","-82.1604","610"
"Glen Ridge","Glen Ridge","City","12099","FL","Florida","26.6714","-80.0751","208"
"Gladeview","Gladeview","City","12086","FL","Florida","25.8395","-80.2368","14161"
"Gifford","Gifford","City","12061","FL","Florida","27.6756","-80.4252","4477"
"Gibsonton","Gibsonton","City","12057","FL","Florida","27.826","-82.3761","18242"
"Geneva","Geneva","City","12117","FL","Florida","28.7377","-81.1143","3716"
"Gateway","Gateway","City","12071","FL","Florida","26.5793","-81.7446","10772"
"Gardner","Gardner","City","12049","FL","Florida","27.3537","-81.7895","331"
"Garden Grove","Garden Grove","City","12053","FL","Florida","28.4716","-82.4349","1289"
"Garcon Point","Garcon Point","City","12113","FL","Florida","30.4758","-87.09","268"
"Gainesville","Gainesville","City","12001","FL","Florida","29.6804","-82.3459","213287"
"Fussels Corner","Fussels Corner","City","12105","FL","Florida","28.0574","-81.861","4963"
"Fuller Heights","Fuller Heights","City","12105","FL","Florida","27.9227","-81.9978","11106"
"Fruitville","Fruitville","City","12115","FL","Florida","27.3328","-82.4616","14673"
"Fruitland Park","Fruitland Park","City","12069","FL","Florida","28.8599","-81.9177","7879"
"Fruit Cove","Fruit Cove","City","12109","FL","Florida","30.0972","-81.6175","34469"
"Frostproof","Frostproof","City","12105","FL","Florida","27.7494","-81.5252","2934"
"Freeport","Freeport","City","12131","FL","Florida","30.5039","-86.1391","5478"
"Franklin Park","Franklin Park","City","12011","FL","Florida","26.1327","-80.1763","1444"
"Fountainebleau","Fountainebleau","City","12086","FL","Florida","25.7723","-80.346","57957"
"Fort White","Fort White","City","12023","FL","Florida","29.9224","-82.7135","665"
"Fort Walton Beach","Fort Walton Beach","City","12091","FL","Florida","30.4255","-86.6222","20805"
"Fort Pierce South","Fort Pierce South","City","12111","FL","Florida","27.4098","-80.3539","4615"
"Fort Pierce North","Fort Pierce North","City","12111","FL","Florida","27.4736","-80.3595","7027"
"Fort Pierce","Fort Pierce","City","12111","FL","Florida","27.4255","-80.3431","46409"
"Fort Myers Shores","Fort Myers Shores","City","12071","FL","Florida","26.7135","-81.7384","5737"
"Fort Myers Beach","Fort Myers Beach","City","12071","FL","Florida","26.4308","-81.9146","5687"
"Fort Myers","Fort Myers","City","12071","FL","Florida","26.6194","-81.8302","84694"
"Fort Meade","Fort Meade","City","12105","FL","Florida","27.7645","-81.8058","5127"
"Fort Lauderdale","Fort Lauderdale","City","12011","FL","Florida","26.1412","-80.1464","182247"
"Fort Green Springs","Fort Green Springs","City","12049","FL","Florida","27.5876","-81.9402","491"
"Fort Green","Fort Green","City","12049","FL","Florida","27.6255","-81.9397","193"
"Fort Denaud","Fort Denaud","City","12051","FL","Florida","26.7404","-81.5241","1848"
"Fort Braden","Fort Braden","City","12073","FL","Florida","30.4308","-84.5346","872"
"Forest City","Forest City","City","12117","FL","Florida","28.6619","-81.4444","14011"
"Floridatown","Floridatown","City","12113","FL","Florida","30.5828","-87.1613","289"
"Florida Ridge","Florida Ridge","City","12061","FL","Florida","27.5805","-80.3848","22151"
"Florida Gulf Coast University","Florida Gulf Coast University","City","12071","FL","Florida","26.4613","-81.7686","2530"
"Florida City","Florida City","City","12086","FL","Florida","25.4418","-80.4685","12844"
"Floral City","Floral City","City","12017","FL","Florida","28.7065","-82.309","4953"
"Fleming Island","Fleming Island","City","12019","FL","Florida","30.0988","-81.7124","29505"
"Flagler Estates","Flagler Estates","City","12109","FL","Florida","29.6441","-81.4571","3577"
"Flagler Beach","Flagler Beach","City","12035","FL","Florida","29.4716","-81.1303","5064"
"Five Points","Five Points","City","12023","FL","Florida","30.2225","-82.6465","1111"
"Fisher Island","Fisher Island","City","12086","FL","Florida","25.7607","-80.1416","484"
"Fish Hawk","Fish Hawk","City","12057","FL","Florida","27.8511","-82.2164","24463"
"Fidelis","Fidelis","City","12113","FL","Florida","30.9343","-87.0245","90"
"Ferry Pass","Ferry Pass","City","12033","FL","Florida","30.5205","-87.1899","30526"
"Ferndale","Ferndale","City","12069","FL","Florida","28.622","-81.7014","480"
"Fernandina Beach","Fernandina Beach","City","12089","FL","Florida","30.6571","-81.4511","12697"
"Fern Park","Fern Park","City","12117","FL","Florida","28.6485","-81.3458","8164"
"Fellsmere","Fellsmere","City","12061","FL","Florida","27.7241","-80.5974","4892"
"Feather Sound","Feather Sound","City","12103","FL","Florida","27.9061","-82.6813","3351"
"Fanning Springs","Fanning Springs","City","12075","FL","Florida","29.5873","-82.9245","1044"
"Fairview Shores","Fairview Shores","City","12095","FL","Florida","28.6021","-81.3958","11782"
"Everglades","Everglades","City","12021","FL","Florida","25.858","-81.3862","110"
"Eustis","Eustis","City","12069","FL","Florida","28.8563","-81.6771","22532"
"Esto","Esto","City","12059","FL","Florida","30.9819","-85.6429","370"
"Estero","Estero","City","12071","FL","Florida","26.4276","-81.7951","36187"
"Ensley","Ensley","City","12033","FL","Florida","30.5259","-87.2733","22015"
"Englewood","Englewood","City","12115","FL","Florida","26.9717","-82.3524","19683"
"Ellenton","Ellenton","City","12081","FL","Florida","27.5269","-82.5258","5504"
"Elfers","Elfers","City","12101","FL","Florida","28.214","-82.723","13373"
"El Portal","El Portal","City","12086","FL","Florida","25.8556","-80.1954","1756"
"Egypt Lake-Leto","Egypt Lake-Leto","City","12057","FL","Florida","28.0177","-82.5062","36157"
"Eglin AFB","Eglin AFB","City","12091","FL","Florida","30.4592","-86.5499","2744"
"Edgewood","Edgewood","City","12095","FL","Florida","28.4879","-81.3771","2692"
"Edgewater","Edgewater","City","12127","FL","Florida","28.9594","-80.9406","22952"
"Ebro","Ebro","City","12133","FL","Florida","30.4369","-85.8791","233"
"Eatonville","Eatonville","City","12095","FL","Florida","28.6167","-81.3906","2486"
"Eastpoint","Eastpoint","City","12037","FL","Florida","29.7543","-84.8695","2761"
"East Williston","East Williston","City","12075","FL","Florida","29.3883","-82.4165","635"
"East Palatka","East Palatka","City","12107","FL","Florida","29.6502","-81.5997","1375"
"East Milton","East Milton","City","12113","FL","Florida","30.6175","-86.9636","14566"
"East Lake-Orient Park","East Lake-Orient Park","City","12057","FL","Florida","27.997","-82.3653","30002"
"East Lake","East Lake","City","12103","FL","Florida","28.1206","-82.6868","32714"
"East Bronson","East Bronson","City","12075","FL","Florida","29.4593","-82.5905","1593"
"Eagle Lake","Eagle Lake","City","12105","FL","Florida","27.976","-81.7573","2984"
"Dunnellon","Dunnellon","City","12083","FL","Florida","29.0572","-82.4289","2262"
"Dunedin","Dunedin","City","12103","FL","Florida","28.0329","-82.7862","36110"
"Dundee","Dundee","City","12105","FL","Florida","28.0115","-81.5995","5122"
"Duck Key","Duck Key","City","12087","FL","Florida","24.771","-80.9132","783"
"Dover","Dover","City","12057","FL","Florida","27.9927","-82.2198","3444"
"Doral","Doral","City","12086","FL","Florida","25.8152","-80.3565","73126"
"Doctor Phillips","Doctor Phillips","City","12095","FL","Florida","28.4474","-81.4914","12368"
"Dixonville","Dixonville","City","12113","FL","Florida","30.9865","-87.0416","36"
"Dickerson City","Dickerson City","City","12113","FL","Florida","30.4827","-87.0651","118"
"Destin","Destin","City","12091","FL","Florida","30.395","-86.4701","13751"
"Desoto Lakes","Desoto Lakes","City","12115","FL","Florida","27.3781","-82.4951","1759"
"Desoto Acres","Desoto Acres","City","12115","FL","Florida","27.3823","-82.5167","991"
"Deltona","Deltona","City","12127","FL","Florida","28.905","-81.2137","212616"
"Delray Beach","Delray Beach","City","12099","FL","Florida","26.455","-80.0905","66434"
"Deerfield Beach","Deerfield Beach","City","12011","FL","Florida","26.305","-80.1277","86062"
"DeLand Southwest","DeLand Southwest","City","12127","FL","Florida","29.0078","-81.3113","1229"
"DeLand","DeLand","City","12127","FL","Florida","29.0225","-81.2875","36528"
"DeFuniak Springs","DeFuniak Springs","City","12131","FL","Florida","30.7123","-86.1208","5875"
"DeBary","DeBary","City","12127","FL","Florida","28.8815","-81.324","22015"
"De Leon Springs","De Leon Springs","City","12127","FL","Florida","29.1172","-81.3517","2481"
"Daytona Beach Shores","Daytona Beach Shores","City","12127","FL","Florida","29.1696","-80.9796","5086"
"Daytona Beach","Daytona Beach","City","12127","FL","Florida","29.1995","-81.0982","71041"
"Day","Day","City","12067","FL","Florida","30.195","-83.2909","116"
"Davie","Davie","City","12011","FL","Florida","26.0789","-80.287","104782"
"Davenport","Davenport","City","12105","FL","Florida","28.1587","-81.6083","9049"
"Dania Beach","Dania Beach","City","12011","FL","Florida","26.0593","-80.1637","31703"
"Dade City North","Dade City North","City","12101","FL","Florida","28.3839","-82.1943","2759"
"Dade City","Dade City","City","12101","FL","Florida","28.3565","-82.1942","7143"
"Cypress Quarters","Cypress Quarters","City","12093","FL","Florida","27.2479","-80.8115","1430"
"Cypress Lake","Cypress Lake","City","12071","FL","Florida","26.5392","-81.8999","12334"
"Cypress Gardens","Cypress Gardens","City","12105","FL","Florida","28.0036","-81.6857","10223"
"Cutler Bay","Cutler Bay","City","12086","FL","Florida","25.5765","-80.3356","44865"
"Cudjoe Key","Cudjoe Key","City","12087","FL","Florida","24.6745","-81.4986","2315"
"Crystal Springs","Crystal Springs","City","12101","FL","Florida","28.183","-82.1539","843"
"Crystal River","Crystal River","City","12017","FL","Florida","28.8964","-82.5991","3291"
"Crystal Lake","Crystal Lake","City","12105","FL","Florida","28.0371","-81.9064","5862"
"Cross City","Cross City","City","12029","FL","Florida","29.6386","-83.1248","2353"
"Crooked Lake Park","Crooked Lake Park","City","12105","FL","Florida","27.8293","-81.5897","1911"
"Crestview","Crestview","City","12091","FL","Florida","30.7477","-86.5785","26934"
"Crescent City","Crescent City","City","12107","FL","Florida","29.4374","-81.5173","1891"
"Crescent Beach","Crescent Beach","City","12109","FL","Florida","29.7355","-81.2413","908"
"Crawfordville","Crawfordville","City","12129","FL","Florida","30.1996","-84.3634","5172"
"Country Walk","Country Walk","City","12086","FL","Florida","25.633","-80.4353","18627"
"Country Club","Country Club","City","12086","FL","Florida","25.9407","-80.3102","51105"
"Cottondale","Cottondale","City","12063","FL","Florida","30.7891","-85.3644","873"
"Cortez","Cortez","City","12081","FL","Florida","27.4668","-82.6688","5365"
"Coral Terrace","Coral Terrace","City","12086","FL","Florida","25.7464","-80.3049","25869"
"Coral Springs","Coral Springs","City","12011","FL","Florida","26.2702","-80.2591","133693"
"Coral Gables","Coral Gables","City","12086","FL","Florida","25.7037","-80.2715","49269"
"Cooper City","Cooper City","City","12011","FL","Florida","26.0463","-80.2862","33867"
"Conway","Conway","City","12095","FL","Florida","28.4968","-81.3316","13630"
"Connerton","Connerton","City","12101","FL","Florida","28.3022","-82.4624","5914"
"Combee Settlement","Combee Settlement","City","12105","FL","Florida","28.0597","-81.9051","5426"
"Coleman","Coleman","City","12119","FL","Florida","28.8028","-82.0707","719"
"Coconut Creek","Coconut Creek","City","12011","FL","Florida","26.2803","-80.1842","57553"
"Cocoa West","Cocoa West","City","12009","FL","Florida","28.3591","-80.7713","6224"
"Cocoa Beach","Cocoa Beach","City","12009","FL","Florida","28.3327","-80.6274","11316"
"Cocoa","Cocoa","City","12009","FL","Florida","28.382","-80.7675","18891"
"Cobbtown","Cobbtown","City","12113","FL","Florida","30.8823","-87.1212","61"
"Cloud Lake","Cloud Lake","City","12099","FL","Florida","26.6743","-80.0731","349"
"Clewiston","Clewiston","City","12051","FL","Florida","26.7529","-80.9399","7447"
"Cleveland","Cleveland","City","12015","FL","Florida","26.9529","-81.9925","2683"
"Clermont","Clermont","City","12069","FL","Florida","28.5325","-81.7208","41562"
"Clearwater","Clearwater","City","12103","FL","Florida","27.979","-82.7623","116616"
"Clarcona","Clarcona","City","12095","FL","Florida","28.6268","-81.4979","4770"
"Citrus Springs","Citrus Springs","City","12017","FL","Florida","28.9931","-82.4594","10162"
"Citrus Park","Citrus Park","City","12057","FL","Florida","28.073","-82.5628","27440"
"Citrus Hills","Citrus Hills","City","12017","FL","Florida","28.887","-82.4312","8279"
"Cinco Bayou","Cinco Bayou","City","12091","FL","Florida","30.4222","-86.6096","671"
"Chumuckla","Chumuckla","City","12113","FL","Florida","30.7826","-87.2309","782"
"Chuluota","Chuluota","City","12117","FL","Florida","28.638","-81.1159","2792"
"Christmas","Christmas","City","12095","FL","Florida","28.5605","-81.0201","1310"
"Chokoloskee","Chokoloskee","City","12021","FL","Florida","25.8143","-81.3603","958"
"Chipley","Chipley","City","12133","FL","Florida","30.7752","-85.5406","3599"
"Chiefland","Chiefland","City","12075","FL","Florida","29.4923","-82.8682","2152"
"Cheval","Cheval","City","12057","FL","Florida","28.1459","-82.5184","12839"
"Chattahoochee","Chattahoochee","City","12039","FL","Florida","30.6977","-84.8341","3370"
"Charlotte Park","Charlotte Park","City","12015","FL","Florida","26.9032","-82.0487","1913"
"Charlotte Harbor","Charlotte Harbor","City","12015","FL","Florida","26.9629","-82.0571","4644"
"Charleston Park","Charleston Park","City","12071","FL","Florida","26.7055","-81.5807","65"
"Chaires","Chaires","City","12073","FL","Florida","30.4421","-84.1269","560"
"Century","Century","City","12033","FL","Florida","30.9767","-87.2629","1979"
"Center Hill","Center Hill","City","12119","FL","Florida","28.6334","-81.9986","1082"
"Celebration","Celebration","City","12097","FL","Florida","28.3102","-81.551","11264"
"Cedar Key","Cedar Key","City","12075","FL","Florida","29.146","-83.0388","897"
"Cedar Grove","Cedar Grove","City","12005","FL","Florida","30.1812","-85.6268","3431"
"Casselberry","Casselberry","City","12117","FL","Florida","28.6624","-81.3217","28750"
"Caryville","Caryville","City","12133","FL","Florida","30.7753","-85.812","274"
"Carrollwood","Carrollwood","City","12057","FL","Florida","28.0577","-82.5148","35846"
"Carrabelle","Carrabelle","City","12037","FL","Florida","29.8555","-84.6685","2815"
"Captiva","Captiva","City","12071","FL","Florida","26.5205","-82.191","163"
"Capitola","Capitola","City","12073","FL","Florida","30.4449","-84.0799","313"
"Cape Coral","Cape Coral","City","12071","FL","Florida","26.6443","-81.9957","682773"
"Cape Canaveral","Cape Canaveral","City","12009","FL","Florida","28.3933","-80.6049","9979"
"Canal Point","Canal Point","City","12099","FL","Florida","26.8626","-80.6222","315"
"Campbellton","Campbellton","City","12063","FL","Florida","30.9505","-85.4025","172"
"Campbell","Campbell","City","12097","FL","Florida","28.2603","-81.4525","2132"
"Callaway","Callaway","City","12005","FL","Florida","30.1349","-85.5568","13656"
"Callahan","Callahan","City","12089","FL","Florida","30.5655","-81.8319","1637"
"Cabana Colony","Cabana Colony","City","12099","FL","Florida","26.8555","-80.0864","2448"
"Butler Beach","Butler Beach","City","12109","FL","Florida","29.798","-81.2653","4973"
"Bushnell","Bushnell","City","12119","FL","Florida","28.686","-82.1165","3019"
"Burnt Store Marina","Burnt Store Marina","City","12071","FL","Florida","26.7645","-82.0507","2157"
"Bunnell","Bunnell","City","12035","FL","Florida","29.4193","-81.3231","3203"
"Buenaventura Lakes","Buenaventura Lakes","City","12097","FL","Florida","28.3349","-81.3539","35922"
"Buckingham","Buckingham","City","12071","FL","Florida","26.6613","-81.7402","4200"
"Buckhead Ridge","Buckhead Ridge","City","12043","FL","Florida","27.1331","-80.8868","1034"
"Brownsville","Brownsville","City","12086","FL","Florida","25.8216","-80.2417","17726"
"Brownsdale","Brownsdale","City","12113","FL","Florida","30.8859","-87.2218","326"
"Brooksville","Brooksville","City","12053","FL","Florida","28.5404","-82.3903","8735"
"Brookridge","Brookridge","City","12053","FL","Florida","28.5483","-82.4897","4741"
"Brooker","Brooker","City","12007","FL","Florida","29.8877","-82.3327","256"
"Bronson","Bronson","City","12075","FL","Florida","29.4501","-82.6391","1419"
"Broadview Park","Broadview Park","City","12011","FL","Florida","26.0978","-80.209","8505"
"Bristol","Bristol","City","12077","FL","Florida","30.4255","-84.9773","1157"
"Briny Breezes","Briny Breezes","City","12099","FL","Florida","26.509","-80.0542","618"
"Brent","Brent","City","12033","FL","Florida","30.4727","-87.2495","21717"
"Branford","Branford","City","12121","FL","Florida","29.9623","-82.9243","910"
"Brandon","Brandon","City","12057","FL","Florida","27.9367","-82.3","115330"
"Bradley Junction","Bradley Junction","City","12105","FL","Florida","27.7942","-81.9784","784"
"Bradfordville","Bradfordville","City","12073","FL","Florida","30.5735","-84.2055","18850"
"Bradenton Beach","Bradenton Beach","City","12081","FL","Florida","27.4651","-82.6958","867"
"Bradenton","Bradenton","City","12081","FL","Florida","27.4901","-82.5757","54918"
"Boynton Beach","Boynton Beach","City","12099","FL","Florida","26.5281","-80.0811","79479"
"Bowling Green","Bowling Green","City","12049","FL","Florida","27.638","-81.8244","2516"
"Boulevard Gardens","Boulevard Gardens","City","12011","FL","Florida","26.1253","-80.1804","1753"
"Bonita Springs","Bonita Springs","City","12071","FL","Florida","26.3558","-81.7859","347581"
"Bonifay","Bonifay","City","12059","FL","Florida","30.7786","-85.6862","2756"
"Bokeelia","Bokeelia","City","12071","FL","Florida","26.68","-82.1409","1815"
"Boca Raton","Boca Raton","City","12099","FL","Florida","26.3752","-80.108","95347"
"Blountstown","Blountstown","City","12013","FL","Florida","30.443","-85.0455","3168"
"Bloomingdale","Bloomingdale","City","12057","FL","Florida","27.8784","-82.2624","25042"
"Black Hammock","Black Hammock","City","12117","FL","Florida","28.7107","-81.1801","1250"
"Black Diamond","Black Diamond","City","12017","FL","Florida","28.9067","-82.4946","1023"
"Bithlo","Bithlo","City","12095","FL","Florida","28.5644","-81.1073","10507"
"Biscayne Park","Biscayne Park","City","12086","FL","Florida","25.8818","-80.1814","3117"
"Big Pine Key","Big Pine Key","City","12087","FL","Florida","24.6893","-81.3676","4752"
"Big Coppitt Key","Big Coppitt Key","City","12087","FL","Florida","24.5914","-81.6574","3147"
"Beverly Hills","Beverly Hills","City","12017","FL","Florida","28.9176","-82.4542","10236"
"Beverly Beach","Beverly Beach","City","12035","FL","Florida","29.5166","-81.1476","516"
"Berrydale","Berrydale","City","12113","FL","Florida","30.8982","-87.035","211"
"Berkshire Lakes","Berkshire Lakes","City","12021","FL","Florida","26.1602","-81.7274","2403"
"Bellview","Bellview","City","12033","FL","Florida","30.462","-87.312","22613"
"Belleview","Belleview","City","12083","FL","Florida","29.0608","-82.0565","5314"
"Belleair Shore","Belleair Shore","City","12103","FL","Florida","27.9173","-82.8455","85"
"Belleair Bluffs","Belleair Bluffs","City","12103","FL","Florida","27.9198","-82.8191","2436"
"Belleair Beach","Belleair Beach","City","12103","FL","Florida","27.9242","-82.8359","1522"
"Belleair","Belleair","City","12103","FL","Florida","27.9365","-82.8114","4266"
"Belle Isle","Belle Isle","City","12095","FL","Florida","28.4723","-81.3491","6975"
"Belle Glade","Belle Glade","City","12099","FL","Florida","26.6916","-80.6656","16983"
"Bellair-Meadowbrook Terrace","Bellair-Meadowbrook Terrace","City","12019","FL","Florida","30.1796","-81.7375","14289"
"Bell","Bell","City","12041","FL","Florida","29.7568","-82.862","457"
"Bee Ridge","Bee Ridge","City","12115","FL","Florida","27.2855","-82.4731","9921"
"Bear Creek","Bear Creek","City","12103","FL","Florida","27.7542","-82.7285","2194"
"Beacon Square","Beacon Square","City","12101","FL","Florida","28.2118","-82.7504","7096"
"Bayshore Gardens","Bayshore Gardens","City","12081","FL","Florida","27.4345","-82.5793","19720"
"Bayport","Bayport","City","12053","FL","Florida","28.5468","-82.6456","0"
"Bayonet Point","Bayonet Point","City","12101","FL","Florida","28.3254","-82.6834","25200"
"Bay Pines","Bay Pines","City","12103","FL","Florida","27.8139","-82.7748","2746"
"Bay Lake","Bay Lake","City","12095","FL","Florida","28.387","-81.5751","37"
"Bay Hill","Bay Hill","City","12095","FL","Florida","28.4559","-81.5122","4877"
"Bay Harbor Islands","Bay Harbor Islands","City","12086","FL","Florida","25.8877","-80.1334","5880"
"Bascom","Bascom","City","12063","FL","Florida","30.9278","-85.1181","114"
"Bartow","Bartow","City","12105","FL","Florida","27.8868","-81.8214","18880"
"Bardmoor","Bardmoor","City","12103","FL","Florida","27.8574","-82.7534","9711"
"Balm","Balm","City","12057","FL","Florida","27.7542","-82.2882","5046"
"Baldwin","Baldwin","City","12031","FL","Florida","30.3052","-81.9744","1687"
"Bal Harbour","Bal Harbour","City","12086","FL","Florida","25.8935","-80.1258","3037"
"Bagdad","Bagdad","City","12113","FL","Florida","30.5824","-87.0447","4140"
"Babson Park","Babson Park","City","12105","FL","Florida","27.8342","-81.5281","1310"
"Azalea Park","Azalea Park","City","12095","FL","Florida","28.5473","-81.2956","15549"
"Avon Park","Avon Park","City","12055","FL","Florida","27.5898","-81.5068","9725"
"Aventura","Aventura","City","12086","FL","Florida","25.9566","-80.1371","39734"
"Ave Maria","Ave Maria","City","12021","FL","Florida","26.3218","-81.4397","5018"
"Avalon","Avalon","City","12113","FL","Florida","30.5366","-87.101","553"
"Aucilla","Aucilla","City","12065","FL","Florida","30.477","-83.7604","200"
"Auburndale","Auburndale","City","12105","FL","Florida","28.0963","-81.8012","15704"
"Atlantis","Atlantis","City","12099","FL","Florida","26.5962","-80.1031","1814"
"Atlantic Beach","Atlantic Beach","City","12031","FL","Florida","30.3375","-81.4127","13404"
"Astor","Astor","City","12069","FL","Florida","29.1635","-81.5349","1425"
"Astatula","Astatula","City","12069","FL","Florida","28.7065","-81.7346","2409"
"Asbury Lake","Asbury Lake","City","12019","FL","Florida","30.0472","-81.7853","11629"
"Aripeka","Aripeka","City","12101","FL","Florida","28.4308","-82.6668","138"
"Archer","Archer","City","12001","FL","Florida","29.54","-82.5186","1065"
"Arcadia","Arcadia","City","12027","FL","Florida","27.2215","-81.8585","7460"
"Apopka","Apopka","City","12095","FL","Florida","28.7015","-81.5316","54110"
"Apollo Beach","Apollo Beach","City","12057","FL","Florida","27.7618","-82.4003","24790"
"Apalachicola","Apalachicola","City","12037","FL","Florida","29.7283","-84.994","2580"
"Anna Maria","Anna Maria","City","12081","FL","Florida","27.5297","-82.7339","944"
"Andrews","Andrews","City","12075","FL","Florida","29.5496","-82.8883","681"
"Alva","Alva","City","12071","FL","Florida","26.7188","-81.6269","2931"
"Alturas","Alturas","City","12105","FL","Florida","27.8417","-81.6952","3651"
"Altoona","Altoona","City","12069","FL","Florida","28.9681","-81.6482","103"
"Altha","Altha","City","12013","FL","Florida","30.5721","-85.1263","546"
"Altamonte Springs","Altamonte Springs","City","12117","FL","Florida","28.6615","-81.3953","45732"
"Allentown","Allentown","City","12113","FL","Florida","30.7745","-87.0822","917"
"Alford","Alford","City","12063","FL","Florida","30.6967","-85.3953","422"
"Alafaya","Alafaya","City","12095","FL","Florida","28.528","-81.1868","92080"
"Alachua","Alachua","City","12001","FL","Florida","29.7779","-82.4832","10527"
"Acacia Villas","Acacia Villas","City","12099","FL","Florida","26.6457","-80.1104","604"
